[
  {
    "name": "University of Dhaka ",
    "key": "1",
    "shortName": "  DU ",
    "BuildYear": "1921",
    "Place": " Dhaka Dhaka division General ",
    "location": {
      "lon": "90.3805625",
      "lat": "23.7317915"
    }
  },
  {
    "name": " University of Rajshahi ",
    "key": "2",
    "shortName": "  RU ",
    "BuildYear": "1953",
    "Place": " Rajshahi Rajshahi division General ",
    "location": {
      "lon": "88.6376213",
      "lat": "24.3683875"
    }
  },
  {
    "name": " Bangladesh Agricultural University ",
    "key": "3",
    "shortName": "  BAU ",
    "BuildYear": "1961",
    "Place": " Mymensingh Mymensingh division Agricultural Science ",
    "location": {
      "lon": "90.435302",
      "lat": "24.7243087"
    }
  },
  {
    "name": " Bangladesh University of Engineering   Technology ",
    "key": "4",
    "shortName": "  BUET ",
    "BuildYear": "1962",
    "Place": " Dhaka Dhaka division Engineering ",
    "location": {
      "lon": "90.3910421",
      "lat": "23.7275171"
    }
  },
  {
    "name": " University of Chittagong ",
    "key": "5",
    "shortName": "  CU ",
    "BuildYear": "1966",
    "Place": " Chittagong Chittagong division General ",
    "location": {
      "lon": "91.7876213911518",
      "lat": "22.4711013"
    }
  },
  {
    "name": " Jahangirnagar University ",
    "key": "6",
    "shortName": "  JU ",
    "BuildYear": "1970",
    "Place": " Savar  Dhaka Dhaka division General ",
    "location": {
      "lon": "90.2693921",
      "lat": "23.883312"
    }
  },
  {
    "name": " Islamic University  Bangladesh ",
    "key": "7",
    "shortName": "  IU ",
    "BuildYear": "1979",
    "Place": " Kushtia Khulna division General   Technological ",
    "location": {
      "lon": "89.1505084977814",
      "lat": "23.72145455"
    }
  },
  {
    "name": " Shahjalal University of Science and Technology ",
    "key": "8",
    "shortName": "  SUST ",
    "BuildYear": "1986",
    "Place": " Sylhet Sylhet division Science   Technology ",
    "location": {
      "lon": "91.8316875994537",
      "lat": "24.91989565"
    }
  }
]
